{"dailygameschedule": {"lastUpdatedOn": "2019-09-09 8:04:14 AM", "gameentry": [{"id": "49073", "scheduleStatus": "Normal", "originalDate": null, "originalTime": null, "delayedOrPostponedReason": null, "date": "2019-09-13", "time": "4:05PM", "awayTeam": {"ID": "132", "City": "Pittsburgh", "Name": "Pirates", "Abbreviation": "PIT"}, "homeTeam": {"ID": "131", "City": "Chicago", "Name": "Cubs", "Abbreviation": "CHC"}, "location": "Wrigley Field"}, {"id": "49072", "scheduleStatus": "Normal", "originalDate": null, "originalTime": null, "delayedOrPostponedReason": null, "date": "2019-09-13", "time": "7:05PM", "awayTeam": {"ID": "130", "City": "Atlanta", "Name": "Braves", "Abbreviation": "ATL"}, "homeTeam": {"ID": "126", "City": "Washington", "Name": "Nationals", "Abbreviation": "WAS"}, "location": "Nationals Park"}, {"id": "49071", "scheduleStatus": "Normal", "originalDate": null, "originalTime": null, "delayedOrPostponedReason": null, "date": "2019-09-13", "time": "7:07PM", "awayTeam": {"ID": "114", "City": "New York", "Name": "Yankees", "Abbreviation": "NYY"}, "homeTeam": {"ID": "112", "City": "Toronto", "Name": "Blue Jays", "Abbreviation": "TOR"}, "location": "Rogers Centre"}, {"id": "49070", "scheduleStatus": "Normal", "originalDate": null, "originalTime": null, "delayedOrPostponedReason": null, "date": "2019-09-13", "time": "7:10PM", "awayTeam": {"ID": "111", "City": "Baltimore", "Name": "Orioles", "Abbreviation": "BAL"}, "homeTeam": {"ID": "117", "City": "Detroit", "Name": "Tigers", "Abbreviation": "DET"}, "location": "Comerica Park"}, {"id": "49075", "scheduleStatus": "Normal", "originalDate": null, "originalTime": null, "delayedOrPostponedReason": null, "date": "2019-09-13", "time": "7:10PM", "awayTeam": {"ID": "120", "City": "Minnesota", "Name": "Twins", "Abbreviation": "MIN"}, "homeTeam": {"ID": "116", "City": "Cleveland", "Name": "Indians", "Abbreviation": "CLE"}, "location": "Progressive Field"}, {"id": "49069", "scheduleStatus": "Normal", "originalDate": null, "originalTime": null, "delayedOrPostponedReason": null, "date": "2019-09-13", "time": "7:10PM", "awayTeam": {"ID": "137", "City": "Los Angeles", "Name": "Dodgers", "Abbreviation": "LAD"}, "homeTeam": {"ID": "127", "City": "New York", "Name": "Mets", "Abbreviation": "NYM"}, "location": "Citi Field"}, {"id": "49074", "scheduleStatus": "Normal", "originalDate": null, "originalTime": null, "delayedOrPostponedReason": null, "date": "2019-09-13", "time": "8:05PM", "awayTeam": {"ID": "125", "City": "Oakland", "Name": "Athletics", "Abbreviation": "OAK"}, "homeTeam": {"ID": "121", "City": "Texas", "Name": "Rangers", "Abbreviation": "TEX"}, "location": "Globe Life Park in Arlington"}, {"id": "49076", "scheduleStatus": "Normal", "originalDate": null, "originalTime": null, "delayedOrPostponedReason": null, "date": "2019-09-13", "time": "8:15PM", "awayTeam": {"ID": "122", "City": "Houston", "Name": "Astros", "Abbreviation": "HOU"}, "homeTeam": {"ID": "118", "City": "Kansas City", "Name": "Royals", "Abbreviation": "KC"}, "location": "Kauffman Stadium"}, {"id": "49068", "scheduleStatus": "Normal", "originalDate": null, "originalTime": null, "delayedOrPostponedReason": null, "date": "2019-09-13", "time": "8:15PM", "awayTeam": {"ID": "134", "City": "Milwaukee", "Name": "Brewers", "Abbreviation": "MIL"}, "homeTeam": {"ID": "133", "City": "St. Louis", "Name": "Cardinals", "Abbreviation": "STL"}, "location": "Busch Stadium"}, {"id": "49067", "scheduleStatus": "Normal", "originalDate": null, "originalTime": null, "delayedOrPostponedReason": null, "date": "2019-09-13", "time": "8:40PM", "awayTeam": {"ID": "139", "City": "San Diego", "Name": "Padres", "Abbreviation": "SD"}, "homeTeam": {"ID": "138", "City": "Colorado", "Name": "Rockies", "Abbreviation": "COL"}, "location": "Coors Field"}, {"id": "49066", "scheduleStatus": "Normal", "originalDate": null, "originalTime": null, "delayedOrPostponedReason": null, "date": "2019-09-13", "time": "9:40PM", "awayTeam": {"ID": "135", "City": "Cincinnati", "Name": "Reds", "Abbreviation": "CIN"}, "homeTeam": {"ID": "140", "City": "Arizona", "Name": "Diamondbacks", "Abbreviation": "ARI"}, "location": "Chase Field"}, {"id": "49065", "scheduleStatus": "Normal", "originalDate": null, "originalTime": null, "delayedOrPostponedReason": null, "date": "2019-09-13", "time": "10:07PM", "awayTeam": {"ID": "115", "City": "Tampa Bay", "Name": "Rays", "Abbreviation": "TB"}, "homeTeam": {"ID": "124", "City": "Los Angeles", "Name": "Angels", "Abbreviation": "LAA"}, "location": "Angel Stadium"}, {"id": "49064", "scheduleStatus": "Normal", "originalDate": null, "originalTime": null, "delayedOrPostponedReason": null, "date": "2019-09-13", "time": "10:10PM", "awayTeam": {"ID": "119", "City": "Chicago", "Name": "White Sox", "Abbreviation": "CWS"}, "homeTeam": {"ID": "123", "City": "Seattle", "Name": "Mariners", "Abbreviation": "SEA"}, "location": "T-Mobile Park"}, {"id": "49063", "scheduleStatus": "Normal", "originalDate": null, "originalTime": null, "delayedOrPostponedReason": null, "date": "2019-09-13", "time": "10:15PM", "awayTeam": {"ID": "128", "City": "Miami", "Name": "Marlins", "Abbreviation": "MIA"}, "homeTeam": {"ID": "136", "City": "San Francisco", "Name": "Giants", "Abbreviation": "SF"}, "location": "Oracle Park"}]}}