{"dailygameschedule": {"lastUpdatedOn": "2019-09-09 12:00:05 AM", "gameentry": [{"id": "49032", "scheduleStatus": "Normal", "originalDate": null, "originalTime": null, "delayedOrPostponedReason": null, "date": "2019-09-16", "time": "4:10PM", "awayTeam": {"ID": "111", "City": "Baltimore", "Name": "Orioles", "Abbreviation": "BAL"}, "homeTeam": {"ID": "117", "City": "Detroit", "Name": "Tigers", "Abbreviation": "DET"}, "location": "Comerica Park"}, {"id": "49030", "scheduleStatus": "Normal", "originalDate": null, "originalTime": null, "delayedOrPostponedReason": null, "date": "2019-09-16", "time": "7:40PM", "awayTeam": {"ID": "119", "City": "Chicago", "Name": "White Sox", "Abbreviation": "CWS"}, "homeTeam": {"ID": "120", "City": "Minnesota", "Name": "Twins", "Abbreviation": "MIN"}, "location": "Target Field"}, {"id": "49031", "scheduleStatus": "Normal", "originalDate": null, "originalTime": null, "delayedOrPostponedReason": null, "date": "2019-09-16", "time": "7:40PM", "awayTeam": {"ID": "139", "City": "San Diego", "Name": "Padres", "Abbreviation": "SD"}, "homeTeam": {"ID": "134", "City": "Milwaukee", "Name": "Brewers", "Abbreviation": "MIL"}, "location": "Miller Park"}, {"id": "49029", "scheduleStatus": "Normal", "originalDate": null, "originalTime": null, "delayedOrPostponedReason": null, "date": "2019-09-16", "time": "7:45PM", "awayTeam": {"ID": "126", "City": "Washington", "Name": "Nationals", "Abbreviation": "WAS"}, "homeTeam": {"ID": "133", "City": "St. Louis", "Name": "Cardinals", "Abbreviation": "STL"}, "location": "Busch Stadium"}, {"id": "49028", "scheduleStatus": "Normal", "originalDate": null, "originalTime": null, "delayedOrPostponedReason": null, "date": "2019-09-16", "time": "8:05PM", "awayTeam": {"ID": "135", "City": "Cincinnati", "Name": "Reds", "Abbreviation": "CIN"}, "homeTeam": {"ID": "131", "City": "Chicago", "Name": "Cubs", "Abbreviation": "CHC"}, "location": "Wrigley Field"}, {"id": "49027", "scheduleStatus": "Normal", "originalDate": null, "originalTime": null, "delayedOrPostponedReason": null, "date": "2019-09-16", "time": "8:40PM", "awayTeam": {"ID": "127", "City": "New York", "Name": "Mets", "Abbreviation": "NYM"}, "homeTeam": {"ID": "138", "City": "Colorado", "Name": "Rockies", "Abbreviation": "COL"}, "location": "Coors Field"}, {"id": "49026", "scheduleStatus": "Normal", "originalDate": null, "originalTime": null, "delayedOrPostponedReason": null, "date": "2019-09-16", "time": "9:40PM", "awayTeam": {"ID": "128", "City": "Miami", "Name": "Marlins", "Abbreviation": "MIA"}, "homeTeam": {"ID": "140", "City": "Arizona", "Name": "Diamondbacks", "Abbreviation": "ARI"}, "location": "Chase Field"}, {"id": "49025", "scheduleStatus": "Normal", "originalDate": null, "originalTime": null, "delayedOrPostponedReason": null, "date": "2019-09-16", "time": "10:07PM", "awayTeam": {"ID": "118", "City": "Kansas City", "Name": "Royals", "Abbreviation": "KC"}, "homeTeam": {"ID": "125", "City": "Oakland", "Name": "Athletics", "Abbreviation": "OAK"}, "location": "RingCentral Coliseum"}]}}