{"dailygameschedule": {"lastUpdatedOn": "2020-02-25 7:26:02 AM", "gameentry": [{"id": "53901", "scheduleStatus": "Normal", "originalDate": null, "originalTime": null, "delayedOrPostponedReason": null, "date": "2020-02-25", "time": "7:00PM", "awayTeam": {"ID": "93", "City": "Charlotte", "Name": "Hornets", "Abbreviation": "CHA"}, "homeTeam": {"ID": "87", "City": "Indiana", "Name": "Pacers", "Abbreviation": "IND"}, "location": "Bankers Life Fieldhouse"}, {"id": "53900", "scheduleStatus": "Normal", "originalDate": null, "originalTime": null, "delayedOrPostponedReason": null, "date": "2020-02-25", "time": "7:30PM", "awayTeam": {"ID": "90", "City": "Milwaukee", "Name": "Bucks", "Abbreviation": "MIL"}, "homeTeam": {"ID": "81", "City": "Toronto", "Name": "Raptors", "Abbreviation": "TOR"}, "location": "Scotiabank Arena"}, {"id": "53899", "scheduleStatus": "Normal", "originalDate": null, "originalTime": null, "delayedOrPostponedReason": null, "date": "2020-02-25", "time": "8:00PM", "awayTeam": {"ID": "96", "City": "Oklahoma City", "Name": "Thunder", "Abbreviation": "OKL"}, "homeTeam": {"ID": "89", "City": "Chicago", "Name": "Bulls", "Abbreviation": "CHI"}, "location": "United Center"}, {"id": "53898", "scheduleStatus": "Normal", "originalDate": null, "originalTime": null, "delayedOrPostponedReason": null, "date": "2020-02-25", "time": "9:00PM", "awayTeam": {"ID": "88", "City": "Detroit", "Name": "Pistons", "Abbreviation": "DET"}, "homeTeam": {"ID": "99", "City": "Denver", "Name": "Nuggets", "Abbreviation": "DEN"}, "location": "Pepsi Center"}, {"id": "53896", "scheduleStatus": "Normal", "originalDate": null, "originalTime": null, "delayedOrPostponedReason": null, "date": "2020-02-25", "time": "10:00PM", "awayTeam": {"ID": "82", "City": "Boston", "Name": "Celtics", "Abbreviation": "BOS"}, "homeTeam": {"ID": "97", "City": "Portland", "Name": "Trail Blazers", "Abbreviation": "POR"}, "location": "Moda Center"}, {"id": "53897", "scheduleStatus": "Normal", "originalDate": null, "originalTime": null, "delayedOrPostponedReason": null, "date": "2020-02-25", "time": "10:00PM", "awayTeam": {"ID": "110", "City": "New Orleans", "Name": "Pelicans", "Abbreviation": "NOP"}, "homeTeam": {"ID": "105", "City": "Los Angeles", "Name": "Lakers", "Abbreviation": "LAL"}, "location": "Staples Center"}, {"id": "53895", "scheduleStatus": "Normal", "originalDate": null, "originalTime": null, "delayedOrPostponedReason": null, "date": "2020-02-25", "time": "10:30PM", "awayTeam": {"ID": "103", "City": "Sacramento", "Name": "Kings", "Abbreviation": "SAC"}, "homeTeam": {"ID": "101", "City": "Golden State", "Name": "Warriors", "Abbreviation": "GSW"}, "location": "Chase Center"}]}}