{"dailygameschedule": {"lastUpdatedOn": "2019-09-08 8:57:02 AM", "gameentry": [{"id": "49127", "scheduleStatus": "Normal", "originalDate": null, "originalTime": null, "delayedOrPostponedReason": null, "date": "2019-09-09", "time": "7:05PM", "awayTeam": {"ID": "130", "City": "Atlanta", "Name": "Braves", "Abbreviation": "ATL"}, "homeTeam": {"ID": "129", "City": "Philadelphia", "Name": "Phillies", "Abbreviation": "PHI"}, "location": "Citizens Bank Park"}, {"id": "49124", "scheduleStatus": "Normal", "originalDate": null, "originalTime": null, "delayedOrPostponedReason": null, "date": "2019-09-09", "time": "7:10PM", "awayTeam": {"ID": "140", "City": "Arizona", "Name": "Diamondbacks", "Abbreviation": "ARI"}, "homeTeam": {"ID": "127", "City": "New York", "Name": "Mets", "Abbreviation": "NYM"}, "location": "Citi Field"}, {"id": "49125", "scheduleStatus": "Normal", "originalDate": null, "originalTime": null, "delayedOrPostponedReason": null, "date": "2019-09-09", "time": "7:10PM", "awayTeam": {"ID": "114", "City": "New York", "Name": "Yankees", "Abbreviation": "NYY"}, "homeTeam": {"ID": "113", "City": "Boston", "Name": "Red Sox", "Abbreviation": "BOS"}, "location": "Fenway Park"}, {"id": "49126", "scheduleStatus": "Normal", "originalDate": null, "originalTime": null, "delayedOrPostponedReason": null, "date": "2019-09-09", "time": "7:10PM", "awayTeam": {"ID": "134", "City": "Milwaukee", "Name": "Brewers", "Abbreviation": "MIL"}, "homeTeam": {"ID": "128", "City": "Miami", "Name": "Marlins", "Abbreviation": "MIA"}, "location": "Marlins Park"}, {"id": "49128", "scheduleStatus": "Normal", "originalDate": null, "originalTime": null, "delayedOrPostponedReason": null, "date": "2019-09-09", "time": "8:10PM", "awayTeam": {"ID": "125", "City": "Oakland", "Name": "Athletics", "Abbreviation": "OAK"}, "homeTeam": {"ID": "122", "City": "Houston", "Name": "Astros", "Abbreviation": "HOU"}, "location": "Minute Maid Park"}, {"id": "49123", "scheduleStatus": "Normal", "originalDate": null, "originalTime": null, "delayedOrPostponedReason": null, "date": "2019-09-09", "time": "9:45PM", "awayTeam": {"ID": "132", "City": "Pittsburgh", "Name": "Pirates", "Abbreviation": "PIT"}, "homeTeam": {"ID": "136", "City": "San Francisco", "Name": "Giants", "Abbreviation": "SF"}, "location": "Oracle Park"}, {"id": "49122", "scheduleStatus": "Normal", "originalDate": null, "originalTime": null, "delayedOrPostponedReason": null, "date": "2019-09-09", "time": "10:07PM", "awayTeam": {"ID": "116", "City": "Cleveland", "Name": "Indians", "Abbreviation": "CLE"}, "homeTeam": {"ID": "124", "City": "Los Angeles", "Name": "Angels", "Abbreviation": "LAA"}, "location": "Angel Stadium"}, {"id": "49121", "scheduleStatus": "Normal", "originalDate": null, "originalTime": null, "delayedOrPostponedReason": null, "date": "2019-09-09", "time": "10:10PM", "awayTeam": {"ID": "131", "City": "Chicago", "Name": "Cubs", "Abbreviation": "CHC"}, "homeTeam": {"ID": "139", "City": "San Diego", "Name": "Padres", "Abbreviation": "SD"}, "location": "Petco Park"}]}}