{"dailygameschedule": {"lastUpdatedOn": "2019-09-11 7:00:04 PM", "gameentry": [{"id": "49084", "scheduleStatus": "Normal", "originalDate": null, "originalTime": null, "delayedOrPostponedReason": null, "date": "2019-09-12", "time": "1:10PM", "awayTeam": {"ID": "140", "City": "Arizona", "Name": "Diamondbacks", "Abbreviation": "ARI"}, "homeTeam": {"ID": "127", "City": "New York", "Name": "Mets", "Abbreviation": "NYM"}, "location": "Citi Field"}, {"id": "49087", "scheduleStatus": "Normal", "originalDate": null, "originalTime": null, "delayedOrPostponedReason": null, "date": "2019-09-12", "time": "1:10PM", "awayTeam": {"ID": "114", "City": "New York", "Name": "Yankees", "Abbreviation": "NYY"}, "homeTeam": {"ID": "117", "City": "Detroit", "Name": "Tigers", "Abbreviation": "DET"}, "location": "Comerica Park"}, {"id": "49086", "scheduleStatus": "Normal", "originalDate": null, "originalTime": null, "delayedOrPostponedReason": null, "date": "2019-09-12", "time": "1:10PM", "awayTeam": {"ID": "134", "City": "Milwaukee", "Name": "Brewers", "Abbreviation": "MIL"}, "homeTeam": {"ID": "128", "City": "Miami", "Name": "Marlins", "Abbreviation": "MIA"}, "location": "Marlins Park"}, {"id": "49089", "scheduleStatus": "Normal", "originalDate": null, "originalTime": null, "delayedOrPostponedReason": null, "date": "2019-09-12", "time": "2:10PM", "awayTeam": {"ID": "118", "City": "Kansas City", "Name": "Royals", "Abbreviation": "KC"}, "homeTeam": {"ID": "119", "City": "Chicago", "Name": "White Sox", "Abbreviation": "CWS"}, "location": "Guaranteed Rate Field"}, {"id": "49085", "scheduleStatus": "Normal", "originalDate": null, "originalTime": null, "delayedOrPostponedReason": null, "date": "2019-09-12", "time": "3:10PM", "awayTeam": {"ID": "133", "City": "St. Louis", "Name": "Cardinals", "Abbreviation": "STL"}, "homeTeam": {"ID": "138", "City": "Colorado", "Name": "Rockies", "Abbreviation": "COL"}, "location": "Coors Field"}, {"id": "49083", "scheduleStatus": "Normal", "originalDate": null, "originalTime": null, "delayedOrPostponedReason": null, "date": "2019-09-12", "time": "3:40PM", "awayTeam": {"ID": "131", "City": "Chicago", "Name": "Cubs", "Abbreviation": "CHC"}, "homeTeam": {"ID": "139", "City": "San Diego", "Name": "Padres", "Abbreviation": "SD"}, "location": "Petco Park"}, {"id": "49082", "scheduleStatus": "Normal", "originalDate": null, "originalTime": null, "delayedOrPostponedReason": null, "date": "2019-09-12", "time": "3:45PM", "awayTeam": {"ID": "132", "City": "Pittsburgh", "Name": "Pirates", "Abbreviation": "PIT"}, "homeTeam": {"ID": "136", "City": "San Francisco", "Name": "Giants", "Abbreviation": "SF"}, "location": "Oracle Park"}, {"id": "49079", "scheduleStatus": "Normal", "originalDate": null, "originalTime": null, "delayedOrPostponedReason": null, "date": "2019-09-12", "time": "7:07PM", "awayTeam": {"ID": "113", "City": "Boston", "Name": "Red Sox", "Abbreviation": "BOS"}, "homeTeam": {"ID": "112", "City": "Toronto", "Name": "Blue Jays", "Abbreviation": "TOR"}, "location": "Rogers Centre"}, {"id": "49102", "scheduleStatus": "Normal", "originalDate": "2019-09-11", "originalTime": "6:40PM", "delayedOrPostponedReason": "Rain", "date": "2019-09-12", "time": "7:15PM", "awayTeam": {"ID": "114", "City": "New York", "Name": "Yankees", "Abbreviation": "NYY"}, "homeTeam": {"ID": "117", "City": "Detroit", "Name": "Tigers", "Abbreviation": "DET"}, "location": "Comerica Park"}, {"id": "49081", "scheduleStatus": "Normal", "originalDate": null, "originalTime": null, "delayedOrPostponedReason": null, "date": "2019-09-12", "time": "7:15PM", "awayTeam": {"ID": "137", "City": "Los Angeles", "Name": "Dodgers", "Abbreviation": "LAD"}, "homeTeam": {"ID": "111", "City": "Baltimore", "Name": "Orioles", "Abbreviation": "BAL"}, "location": "Oriole Park at Camden Yards"}, {"id": "49080", "scheduleStatus": "Normal", "originalDate": null, "originalTime": null, "delayedOrPostponedReason": null, "date": "2019-09-12", "time": "7:15PM", "awayTeam": {"ID": "130", "City": "Atlanta", "Name": "Braves", "Abbreviation": "ATL"}, "homeTeam": {"ID": "129", "City": "Philadelphia", "Name": "Phillies", "Abbreviation": "PHI"}, "location": "Citizens Bank Park"}, {"id": "49078", "scheduleStatus": "Normal", "originalDate": null, "originalTime": null, "delayedOrPostponedReason": null, "date": "2019-09-12", "time": "7:40PM", "awayTeam": {"ID": "126", "City": "Washington", "Name": "Nationals", "Abbreviation": "WAS"}, "homeTeam": {"ID": "120", "City": "Minnesota", "Name": "Twins", "Abbreviation": "MIN"}, "location": "Target Field"}, {"id": "49088", "scheduleStatus": "Normal", "originalDate": null, "originalTime": null, "delayedOrPostponedReason": null, "date": "2019-09-12", "time": "8:05PM", "awayTeam": {"ID": "115", "City": "Tampa Bay", "Name": "Rays", "Abbreviation": "TB"}, "homeTeam": {"ID": "121", "City": "Texas", "Name": "Rangers", "Abbreviation": "TEX"}, "location": "Globe Life Park in Arlington"}, {"id": "49090", "scheduleStatus": "Normal", "originalDate": null, "originalTime": null, "delayedOrPostponedReason": null, "date": "2019-09-12", "time": "8:10PM", "awayTeam": {"ID": "125", "City": "Oakland", "Name": "Athletics", "Abbreviation": "OAK"}, "homeTeam": {"ID": "122", "City": "Houston", "Name": "Astros", "Abbreviation": "HOU"}, "location": "Minute Maid Park"}, {"id": "49077", "scheduleStatus": "Normal", "originalDate": null, "originalTime": null, "delayedOrPostponedReason": null, "date": "2019-09-12", "time": "10:10PM", "awayTeam": {"ID": "135", "City": "Cincinnati", "Name": "Reds", "Abbreviation": "CIN"}, "homeTeam": {"ID": "123", "City": "Seattle", "Name": "Mariners", "Abbreviation": "SEA"}, "location": "T-Mobile Park"}]}}