{"dailygameschedule": {"lastUpdatedOn": "2020-02-21 9:50:06 PM", "gameentry": [{"id": "52705", "scheduleStatus": "Normal", "originalDate": null, "originalTime": null, "delayedOrPostponedReason": null, "date": "2020-02-21", "time": "7:00PM", "awayTeam": {"ID": "9", "City": "New York", "Name": "Rangers", "Abbreviation": "NYR"}, "homeTeam": {"ID": "3", "City": "Carolina", "Name": "Hurricanes", "Abbreviation": "CAR"}, "location": "PNC Arena"}, {"id": "52704", "scheduleStatus": "Normal", "originalDate": null, "originalTime": null, "delayedOrPostponedReason": null, "date": "2020-02-21", "time": "8:00PM", "awayTeam": {"ID": "16", "City": "Detroit", "Name": "Red Wings", "Abbreviation": "DET"}, "homeTeam": {"ID": "8", "City": "New York", "Name": "Islanders", "Abbreviation": "NYI"}, "location": "Nassau Veterans Memorial Coliseum"}, {"id": "52706", "scheduleStatus": "Normal", "originalDate": null, "originalTime": null, "delayedOrPostponedReason": null, "date": "2020-02-21", "time": "8:30PM", "awayTeam": {"ID": "18", "City": "Nashville", "Name": "Predators", "Abbreviation": "NSH"}, "homeTeam": {"ID": "20", "City": "Chicago", "Name": "Blackhawks", "Abbreviation": "CHI"}, "location": "United Center"}, {"id": "52707", "scheduleStatus": "Normal", "originalDate": null, "originalTime": null, "delayedOrPostponedReason": null, "date": "2020-02-21", "time": "8:30PM", "awayTeam": {"ID": "17", "City": "St. Louis", "Name": "Blues", "Abbreviation": "STL"}, "homeTeam": {"ID": "27", "City": "Dallas", "Name": "Stars", "Abbreviation": "DAL"}, "location": "American Airlines Center"}, {"id": "52708", "scheduleStatus": "Normal", "originalDate": null, "originalTime": null, "delayedOrPostponedReason": null, "date": "2020-02-21", "time": "9:00PM", "awayTeam": {"ID": "11", "City": "Boston", "Name": "Bruins", "Abbreviation": "BOS"}, "homeTeam": {"ID": "23", "City": "Calgary", "Name": "Flames", "Abbreviation": "CGY"}, "location": "Scotiabank Saddledome"}, {"id": "52709", "scheduleStatus": "Normal", "originalDate": null, "originalTime": null, "delayedOrPostponedReason": null, "date": "2020-02-21", "time": "9:00PM", "awayTeam": {"ID": "25", "City": "Minnesota", "Name": "Wild", "Abbreviation": "MIN"}, "homeTeam": {"ID": "24", "City": "Edmonton", "Name": "Oilers", "Abbreviation": "EDM"}, "location": "Rogers Place"}, {"id": "52710", "scheduleStatus": "Normal", "originalDate": null, "originalTime": null, "delayedOrPostponedReason": null, "date": "2020-02-21", "time": "10:00PM", "awayTeam": {"ID": "22", "City": "Colorado", "Name": "Avalanche", "Abbreviation": "COL"}, "homeTeam": {"ID": "29", "City": "Anaheim", "Name": "Ducks", "Abbreviation": "ANA"}, "location": "Honda Center"}]}}