{"dailygameschedule": {"lastUpdatedOn": "2020-02-01 11:18:09 PM", "gameentry": [{"id": "53774", "scheduleStatus": "Normal", "originalDate": null, "originalTime": null, "delayedOrPostponedReason": null, "date": "2020-02-01", "time": "3:30PM", "awayTeam": {"ID": "100", "City": "Minnesota", "Name": "Timberwolves", "Abbreviation": "MIN"}, "homeTeam": {"ID": "102", "City": "Los Angeles", "Name": "Clippers", "Abbreviation": "LAC"}, "location": "Staples Center"}, {"id": "53772", "scheduleStatus": "Normal", "originalDate": null, "originalTime": null, "delayedOrPostponedReason": null, "date": "2020-02-01", "time": "7:00PM", "awayTeam": {"ID": "92", "City": "Miami", "Name": "Heat", "Abbreviation": "MIA"}, "homeTeam": {"ID": "95", "City": "Orlando", "Name": "Magic", "Abbreviation": "ORL"}, "location": "Amway Center"}, {"id": "53773", "scheduleStatus": "Normal", "originalDate": null, "originalTime": null, "delayedOrPostponedReason": null, "date": "2020-02-01", "time": "7:00PM", "awayTeam": {"ID": "83", "City": "New York", "Name": "Knicks", "Abbreviation": "NYK"}, "homeTeam": {"ID": "87", "City": "Indiana", "Name": "Pacers", "Abbreviation": "IND"}, "location": "Bankers Life Fieldhouse"}, {"id": "53770", "scheduleStatus": "Normal", "originalDate": null, "originalTime": null, "delayedOrPostponedReason": null, "date": "2020-02-01", "time": "8:00PM", "awayTeam": {"ID": "84", "City": "Brooklyn", "Name": "Nets", "Abbreviation": "BRO"}, "homeTeam": {"ID": "94", "City": "Washington", "Name": "Wizards", "Abbreviation": "WAS"}, "location": "Capital One Arena"}, {"id": "53771", "scheduleStatus": "Normal", "originalDate": null, "originalTime": null, "delayedOrPostponedReason": null, "date": "2020-02-01", "time": "8:00PM", "awayTeam": {"ID": "101", "City": "Golden State", "Name": "Warriors", "Abbreviation": "GSW"}, "homeTeam": {"ID": "86", "City": "Cleveland", "Name": "Cavaliers", "Abbreviation": "CLE"}, "location": "Rocket Mortgage FieldHouse"}, {"id": "53768", "scheduleStatus": "Normal", "originalDate": null, "originalTime": null, "delayedOrPostponedReason": null, "date": "2020-02-01", "time": "8:30PM", "awayTeam": {"ID": "91", "City": "Atlanta", "Name": "Hawks", "Abbreviation": "ATL"}, "homeTeam": {"ID": "108", "City": "Dallas", "Name": "Mavericks", "Abbreviation": "DAL"}, "location": "American Airlines Center"}, {"id": "53769", "scheduleStatus": "Normal", "originalDate": null, "originalTime": null, "delayedOrPostponedReason": null, "date": "2020-02-01", "time": "8:30PM", "awayTeam": {"ID": "85", "City": "Philadelphia", "Name": "76ers", "Abbreviation": "PHI"}, "homeTeam": {"ID": "82", "City": "Boston", "Name": "Celtics", "Abbreviation": "BOS"}, "location": "TD Garden"}, {"id": "53767", "scheduleStatus": "Normal", "originalDate": null, "originalTime": null, "delayedOrPostponedReason": null, "date": "2020-02-01", "time": "9:00PM", "awayTeam": {"ID": "93", "City": "Charlotte", "Name": "Hornets", "Abbreviation": "CHA"}, "homeTeam": {"ID": "106", "City": "San Antonio", "Name": "Spurs", "Abbreviation": "SAS"}, "location": "AT&T Center"}, {"id": "53765", "scheduleStatus": "Normal", "originalDate": null, "originalTime": null, "delayedOrPostponedReason": null, "date": "2020-02-01", "time": "10:00PM", "awayTeam": {"ID": "105", "City": "Los Angeles", "Name": "Lakers", "Abbreviation": "LAL"}, "homeTeam": {"ID": "103", "City": "Sacramento", "Name": "Kings", "Abbreviation": "SAC"}, "location": "Golden 1 Center"}, {"id": "53766", "scheduleStatus": "Normal", "originalDate": null, "originalTime": null, "delayedOrPostponedReason": null, "date": "2020-02-01", "time": "10:30PM", "awayTeam": {"ID": "98", "City": "Utah", "Name": "Jazz", "Abbreviation": "UTA"}, "homeTeam": {"ID": "97", "City": "Portland", "Name": "Trail Blazers", "Abbreviation": "POR"}, "location": "Moda Center"}]}}