{"dailygameschedule": {"lastUpdatedOn": "2020-02-25 9:54:01 PM", "gameentry": [{"id": "52731", "scheduleStatus": "Normal", "originalDate": null, "originalTime": null, "delayedOrPostponedReason": null, "date": "2020-02-25", "time": "7:00PM", "awayTeam": {"ID": "23", "City": "Calgary", "Name": "Flames", "Abbreviation": "CGY"}, "homeTeam": {"ID": "11", "City": "Boston", "Name": "Bruins", "Abbreviation": "BOS"}, "location": "TD Garden"}, {"id": "52732", "scheduleStatus": "Normal", "originalDate": null, "originalTime": null, "delayedOrPostponedReason": null, "date": "2020-02-25", "time": "7:00PM", "awayTeam": {"ID": "21", "City": "Vancouver", "Name": "Canucks", "Abbreviation": "VAN"}, "homeTeam": {"ID": "14", "City": "Montreal", "Name": "Canadiens", "Abbreviation": "MTL"}, "location": "Bell Centre"}, {"id": "52733", "scheduleStatus": "Normal", "originalDate": null, "originalTime": null, "delayedOrPostponedReason": null, "date": "2020-02-25", "time": "7:00PM", "awayTeam": {"ID": "12", "City": "Toronto", "Name": "Maple Leafs", "Abbreviation": "TOR"}, "homeTeam": {"ID": "1", "City": "Tampa Bay", "Name": "Lightning", "Abbreviation": "TBL"}, "location": "Amalie Arena"}, {"id": "52734", "scheduleStatus": "Normal", "originalDate": null, "originalTime": null, "delayedOrPostponedReason": null, "date": "2020-02-25", "time": "7:00PM", "awayTeam": {"ID": "9", "City": "New York", "Name": "Rangers", "Abbreviation": "NYR"}, "homeTeam": {"ID": "8", "City": "New York", "Name": "Islanders", "Abbreviation": "NYI"}, "location": "Nassau Veterans Memorial Coliseum"}, {"id": "52735", "scheduleStatus": "Normal", "originalDate": null, "originalTime": null, "delayedOrPostponedReason": null, "date": "2020-02-25", "time": "7:00PM", "awayTeam": {"ID": "26", "City": "San Jose", "Name": "Sharks", "Abbreviation": "SJS"}, "homeTeam": {"ID": "6", "City": "Philadelphia", "Name": "Flyers", "Abbreviation": "PHI"}, "location": "Wells Fargo Center"}, {"id": "52736", "scheduleStatus": "Normal", "originalDate": null, "originalTime": null, "delayedOrPostponedReason": null, "date": "2020-02-25", "time": "7:00PM", "awayTeam": {"ID": "2", "City": "Winnipeg", "Name": "Jets", "Abbreviation": "WPJ"}, "homeTeam": {"ID": "5", "City": "Washington", "Name": "Capitals", "Abbreviation": "WSH"}, "location": "Capital One Arena"}, {"id": "52737", "scheduleStatus": "Normal", "originalDate": null, "originalTime": null, "delayedOrPostponedReason": null, "date": "2020-02-25", "time": "7:00PM", "awayTeam": {"ID": "27", "City": "Dallas", "Name": "Stars", "Abbreviation": "DAL"}, "homeTeam": {"ID": "3", "City": "Carolina", "Name": "Hurricanes", "Abbreviation": "CAR"}, "location": "PNC Arena"}, {"id": "52738", "scheduleStatus": "Normal", "originalDate": null, "originalTime": null, "delayedOrPostponedReason": null, "date": "2020-02-25", "time": "7:30PM", "awayTeam": {"ID": "7", "City": "New Jersey", "Name": "Devils", "Abbreviation": "NJD"}, "homeTeam": {"ID": "16", "City": "Detroit", "Name": "Red Wings", "Abbreviation": "DET"}, "location": "Little Caesars Arena"}, {"id": "52739", "scheduleStatus": "Normal", "originalDate": null, "originalTime": null, "delayedOrPostponedReason": null, "date": "2020-02-25", "time": "8:00PM", "awayTeam": {"ID": "20", "City": "Chicago", "Name": "Blackhawks", "Abbreviation": "CHI"}, "homeTeam": {"ID": "17", "City": "St. Louis", "Name": "Blues", "Abbreviation": "STL"}, "location": "Enterprise Center"}, {"id": "52740", "scheduleStatus": "Normal", "originalDate": null, "originalTime": null, "delayedOrPostponedReason": null, "date": "2020-02-25", "time": "8:00PM", "awayTeam": {"ID": "13", "City": "Ottawa", "Name": "Senators", "Abbreviation": "OTT"}, "homeTeam": {"ID": "18", "City": "Nashville", "Name": "Predators", "Abbreviation": "NSH"}, "location": "Bridgestone Arena"}, {"id": "52741", "scheduleStatus": "Normal", "originalDate": null, "originalTime": null, "delayedOrPostponedReason": null, "date": "2020-02-25", "time": "8:00PM", "awayTeam": {"ID": "19", "City": "Columbus", "Name": "Blue Jackets", "Abbreviation": "CBJ"}, "homeTeam": {"ID": "25", "City": "Minnesota", "Name": "Wild", "Abbreviation": "MIN"}, "location": "Xcel Energy Center"}, {"id": "52742", "scheduleStatus": "Normal", "originalDate": null, "originalTime": null, "delayedOrPostponedReason": null, "date": "2020-02-25", "time": "9:00PM", "awayTeam": {"ID": "4", "City": "Florida", "Name": "Panthers", "Abbreviation": "FLO"}, "homeTeam": {"ID": "30", "City": "Arizona", "Name": "Coyotes", "Abbreviation": "ARI"}, "location": "Gila River Arena"}, {"id": "52743", "scheduleStatus": "Normal", "originalDate": null, "originalTime": null, "delayedOrPostponedReason": null, "date": "2020-02-25", "time": "10:00PM", "awayTeam": {"ID": "24", "City": "Edmonton", "Name": "Oilers", "Abbreviation": "EDM"}, "homeTeam": {"ID": "29", "City": "Anaheim", "Name": "Ducks", "Abbreviation": "ANA"}, "location": "Honda Center"}]}}