{"dailygameschedule": {"lastUpdatedOn": "2019-09-12 9:36:03 PM", "gameentry": [{"id": "51478", "week": "2", "scheduleStatus": "Normal", "originalDate": null, "originalTime": null, "delayedOrPostponedReason": null, "date": "2019-09-15", "time": "1:00PM", "awayTeam": {"ID": "76", "City": "Arizona", "Name": "Cardinals", "Abbreviation": "ARI"}, "homeTeam": {"ID": "56", "City": "Baltimore", "Name": "Ravens", "Abbreviation": "BAL"}, "location": "M&T Bank Stadium"}, {"id": "51487", "week": "2", "scheduleStatus": "Normal", "originalDate": null, "originalTime": null, "delayedOrPostponedReason": null, "date": "2019-09-15", "time": "1:00PM", "awayTeam": {"ID": "50", "City": "New England", "Name": "Patriots", "Abbreviation": "NE"}, "homeTeam": {"ID": "49", "City": "Miami", "Name": "Dolphins", "Abbreviation": "MIA"}, "location": "Hard Rock Stadium"}, {"id": "51486", "week": "2", "scheduleStatus": "Normal", "originalDate": null, "originalTime": null, "delayedOrPostponedReason": null, "date": "2019-09-15", "time": "1:00PM", "awayTeam": {"ID": "66", "City": "Jacksonville", "Name": "Jaguars", "Abbreviation": "JAX"}, "homeTeam": {"ID": "64", "City": "Houston", "Name": "Texans", "Abbreviation": "HOU"}, "location": "NRG Stadium"}, {"id": "51485", "week": "2", "scheduleStatus": "Normal", "originalDate": null, "originalTime": null, "delayedOrPostponedReason": null, "date": "2019-09-15", "time": "1:00PM", "awayTeam": {"ID": "63", "City": "Minnesota", "Name": "Vikings", "Abbreviation": "MIN"}, "homeTeam": {"ID": "62", "City": "Green Bay", "Name": "Packers", "Abbreviation": "GB"}, "location": "Lambeau Field"}, {"id": "51484", "week": "2", "scheduleStatus": "Normal", "originalDate": null, "originalTime": null, "delayedOrPostponedReason": null, "date": "2019-09-15", "time": "1:00PM", "awayTeam": {"ID": "75", "City": "Los Angeles", "Name": "Chargers", "Abbreviation": "LAC"}, "homeTeam": {"ID": "61", "City": "Detroit", "Name": "Lions", "Abbreviation": "DET"}, "location": "Ford Field"}, {"id": "51483", "week": "2", "scheduleStatus": "Normal", "originalDate": null, "originalTime": null, "delayedOrPostponedReason": null, "date": "2019-09-15", "time": "1:00PM", "awayTeam": {"ID": "78", "City": "San Francisco", "Name": "49ers", "Abbreviation": "SF"}, "homeTeam": {"ID": "57", "City": "Cincinnati", "Name": "Bengals", "Abbreviation": "CIN"}, "location": "Paul Brown Stadium"}, {"id": "51482", "week": "2", "scheduleStatus": "Normal", "originalDate": null, "originalTime": null, "delayedOrPostponedReason": null, "date": "2019-09-15", "time": "1:00PM", "awayTeam": {"ID": "48", "City": "Buffalo", "Name": "Bills", "Abbreviation": "BUF"}, "homeTeam": {"ID": "53", "City": "New York", "Name": "Giants", "Abbreviation": "NYG"}, "location": "MetLife Stadium"}, {"id": "51481", "week": "2", "scheduleStatus": "Normal", "originalDate": null, "originalTime": null, "delayedOrPostponedReason": null, "date": "2019-09-15", "time": "1:00PM", "awayTeam": {"ID": "79", "City": "Seattle", "Name": "Seahawks", "Abbreviation": "SEA"}, "homeTeam": {"ID": "59", "City": "Pittsburgh", "Name": "Steelers", "Abbreviation": "PIT"}, "location": "Heinz Field"}, {"id": "51480", "week": "2", "scheduleStatus": "Normal", "originalDate": null, "originalTime": null, "delayedOrPostponedReason": null, "date": "2019-09-15", "time": "1:00PM", "awayTeam": {"ID": "65", "City": "Indianapolis", "Name": "Colts", "Abbreviation": "IND"}, "homeTeam": {"ID": "67", "City": "Tennessee", "Name": "Titans", "Abbreviation": "TEN"}, "location": "Nissan Stadium"}, {"id": "51479", "week": "2", "scheduleStatus": "Normal", "originalDate": null, "originalTime": null, "delayedOrPostponedReason": null, "date": "2019-09-15", "time": "1:00PM", "awayTeam": {"ID": "52", "City": "Dallas", "Name": "Cowboys", "Abbreviation": "DAL"}, "homeTeam": {"ID": "55", "City": "Washington", "Name": "Redskins", "Abbreviation": "WAS"}, "location": "FedEx Field"}, {"id": "51488", "week": "2", "scheduleStatus": "Normal", "originalDate": null, "originalTime": null, "delayedOrPostponedReason": null, "date": "2019-09-15", "time": "4:05PM", "awayTeam": {"ID": "73", "City": "Kansas City", "Name": "Chiefs", "Abbreviation": "KC"}, "homeTeam": {"ID": "74", "City": "Oakland", "Name": "Raiders", "Abbreviation": "OAK"}, "location": "RingCentral Coliseum"}, {"id": "51489", "week": "2", "scheduleStatus": "Normal", "originalDate": null, "originalTime": null, "delayedOrPostponedReason": null, "date": "2019-09-15", "time": "4:25PM", "awayTeam": {"ID": "70", "City": "New Orleans", "Name": "Saints", "Abbreviation": "NO"}, "homeTeam": {"ID": "77", "City": "Los Angeles", "Name": "Rams", "Abbreviation": "LA"}, "location": "Los Angeles Memorial Coliseum"}, {"id": "51490", "week": "2", "scheduleStatus": "Normal", "originalDate": null, "originalTime": null, "delayedOrPostponedReason": null, "date": "2019-09-15", "time": "4:25PM", "awayTeam": {"ID": "60", "City": "Chicago", "Name": "Bears", "Abbreviation": "CHI"}, "homeTeam": {"ID": "72", "City": "Denver", "Name": "Broncos", "Abbreviation": "DEN"}, "location": "Broncos Stadium at Mile High"}, {"id": "51491", "week": "2", "scheduleStatus": "Normal", "originalDate": null, "originalTime": null, "delayedOrPostponedReason": null, "date": "2019-09-15", "time": "8:20PM", "awayTeam": {"ID": "54", "City": "Philadelphia", "Name": "Eagles", "Abbreviation": "PHI"}, "homeTeam": {"ID": "68", "City": "Atlanta", "Name": "Falcons", "Abbreviation": "ATL"}, "location": "Georgia Dome"}]}}